{
    "airports": [
        {
            "icao": "KATL",
            "iata": "ATL",
            "name": "Hartsfield Jackson Atlanta International Airport",
            "city": "Atlanta",
            "state": "Georgia",
            "country": "US",
            "elevation": 1026,
            "lat": 33.6366996765,
            "lon": -84.4281005859,
            "tz": "America\/New_York"
        },
        {
            "icao": "KJFK",
            "iata": "JFK",
            "name": "John F Kennedy International Airport",
            "city": "New York",
            "state": "New-York",
            "country": "US",
            "elevation": 13,
            "lat": 40.63980103,
            "lon": -73.77890015,
            "tz": "America\/New_York"
        },
        {
            "icao": "KLAX",
            "iata": "LAX",
            "name": "Los Angeles International Airport",
            "city": "Los Angeles",
            "state": "California",
            "country": "US",
            "elevation": 125,
            "lat": 33.94250107,
            "lon": -118.4079971,
            "tz": "America\/Los_Angeles"
        },
        {
            "icao": "KMIA",
            "iata": "MIA",
            "name": "Miami International Airport",
            "city": "Miami",
            "state": "Florida",
            "country": "US",
            "elevation": 8,
            "lat": 25.7931995392,
            "lon": -80.2906036377,
            "tz": "America\/New_York"
        },
        {
            "icao": "KORD",
            "iata": "ORD",
            "name": "Chicago O'Hare International Airport",
            "city": "Chicago",
            "state": "Illinois",
            "country": "US",
            "elevation": 672,
            "lat": 41.97859955,
            "lon": -87.90480042,
            "tz": "America\/Chicago"
        },
        {
            "icao": "PANC",
            "iata": "ANC",
            "name": "Ted Stevens Anchorage International Airport",
            "city": "Anchorage",
            "state": "Alaska",
            "country": "US",
            "elevation": 152,
            "lat": 61.1744003296,
            "lon": -149.9960021973,
            "tz": "America\/Anchorage"
        },
        {
            "icao": "EGLL",
            "iata": "LHR",
            "name": "London Heathrow Airport",
            "city": "London",
            "state": "England",
            "country": "GB",
            "elevation": 83,
            "lat": 51.4706001282,
            "lon": -0.4619410038,
            "tz": "Europe\/London"
        },
        {
            "icao": "VHHH",
            "iata": "HKG",
            "name": "Chek Lap Kok International Airport",
            "city": "Hong Kong",
            "state": "",
            "country": "HK",
            "elevation": 28,
            "lat": 22.3089008331,
            "lon": 113.915000916,
            "tz": "Asia\/Hong_Kong"
        },
        {
            "icao": "OMDB",
            "iata": "DXB",
            "name": "Dubai International Airport",
            "city": "Dubai",
            "state": "Dubai",
            "country": "AE",
            "elevation": 34,
            "lat": 25.2527999878,
            "lon": 55.3643989563,
            "tz": "Asia\/Dubai"
        },
        {
            "icao": "ZGSZ",
            "iata": "SZX",
            "name": "Shenzhen Bao'an International Airport",
            "city": "Shenzhen",
            "state": "Guangdong",
            "country": "CN",
            "elevation": 13,
            "lat": 22.6392993927,
            "lon": 113.8109970093,
            "tz": "Asia\/Shanghai"
        },
        {
            "icao": "RJAA",
            "iata": "NRT",
            "name": "Narita International Airport",
            "city": "Tokyo",
            "state": "Chiba",
            "country": "JP",
            "elevation": 141,
            "lat": 35.7647018433,
            "lon": 140.3860015869,
            "tz": "Asia\/Tokyo"
        },
        {
            "icao": "RKSI",
            "iata": "ICN",
            "name": "Incheon International Airport",
            "city": "Seoul",
            "state": "Incheon",
            "country": "KR",
            "elevation": 23,
            "lat": 37.4691009521,
            "lon": 126.4509963989,
            "tz": "Asia\/Seoul"
        },
        {
            "icao": "EDFH",
            "iata": "HHN",
            "name": "Frankfurt-Hahn Airport",
            "city": "Hahn",
            "state": "Rheinland-Pfalz",
            "country": "DE",
            "elevation": 1649,
            "lat": 49.9486999512,
            "lon": 7.2638897896,
            "tz": "Europe\/Berlin"
        },
        {
            "icao": "SPJC",
            "iata": "LIM",
            "name": "Jorge Chavez International Airport",
            "city": "Lima",
            "state": "Callao",
            "country": "PE",
            "elevation": 113,
            "lat": -12.021900177,
            "lon": -77.1143035889,
            "tz": "America\/Lima"
        },
        {
            "icao": "YSSY",
            "iata": "SYD",
            "name": "Sydney Kingsford Smith International Airport",
            "city": "Sydney",
            "state": "New-South-Wales",
            "country": "AU",
            "elevation": 21,
            "lat": -33.9460983276,
            "lon": 151.1770019531,
            "tz": "Australia\/Sydney"
        },
        {
            "icao": "PHNL",
            "iata": "HNL",
            "name": "Honolulu International Airport",
            "city": "Honolulu",
            "state": "Hawaii",
            "country": "US",
            "elevation": 13,
            "lat": 21.3187007904,
            "lon": -157.9219970703,
            "tz": "Pacific\/Honolulu"
        },
        {
            "icao": "SBGL",
            "iata": "GIG",
            "name": "Galeao - Antonio Carlos Jobim International Airport",
            "city": "Rio De Janeiro",
            "state": "Rio-de-Janeiro",
            "country": "BR",
            "elevation": 28,
            "lat": -22.8099994659,
            "lon": -43.2505569458,
            "tz": "America\/Sao_Paulo"
        },
        {
            "icao": "SCEL",
            "iata": "SCL",
            "name": "Comodoro Arturo Merino Benitez International Airport",
            "city": "Santiago",
            "state": "Santiago-Metropolitan",
            "country": "CL",
            "elevation": 1555,
            "lat": -33.3930015564,
            "lon": -70.7857971191,
            "tz": "America\/Santiago"
        },
        {
            "icao": "SEQM",
            "iata": "UIO",
            "name": "Nuevo Aeropuerto Internacional Mariscal Sucre",
            "city": "Quito",
            "state": "Pichincha",
            "country": "EC",
            "elevation": 9200,
            "lat": -0.1291666667,
            "lon": -78.3575,
            "tz": "America\/Guayaquil"
        },
        {
            "icao": "MPTO",
            "iata": "PTY",
            "name": "Tocumen International Airport",
            "city": "Tocumen",
            "state": "Panama",
            "country": "PA",
            "elevation": 135,
            "lat": 9.0713596344,
            "lon": -79.3834991455,
            "tz": "America\/Panama"
        },
        {
            "icao": "MMMX",
            "iata": "MEX",
            "name": "Licenciado Benito Juarez International Airport",
            "city": "Mexico City",
            "state": "Mexico-City",
            "country": "MX",
            "elevation": 7316,
            "lat": 19.4363002777,
            "lon": -99.0720977783,
            "tz": "America\/Mexico_City"
        },
        {
            "icao": "RJTT",
            "iata": "HND",
            "name": "Tokyo International Airport",
            "city": "Tokyo",
            "state": "Tokyo",
            "country": "JP",
            "elevation": 35,
            "lat": 35.5522994995,
            "lon": 139.7799987793,
            "tz": "Asia\/Tokyo"
        },
        {
            "icao": "VTBS",
            "iata": "BKK",
            "name": "Suvarnabhumi Airport",
            "city": "Bangkok",
            "state": "Samut-Prakan",
            "country": "TH",
            "elevation": 5,
            "lat": 13.6810998917,
            "lon": 100.7470016479,
            "tz": "Asia\/Bangkok"
        },
        {
            "icao": "SAEZ",
            "iata": "EZE",
            "name": "Ministro Pistarini International Airport",
            "city": "Ezeiza",
            "state": "Buenos-Aires",
            "country": "AR",
            "elevation": 67,
            "lat": -34.8222,
            "lon": -58.5358,
            "tz": "America\/Argentina\/Buenos_Aires"
        },
        {
            "icao": "FAOR",
            "iata": "JNB",
            "name": "Olifants River Bridge Landing Strip Airport",
            "city": "Olifants River Bridge",
            "state": "Limpopo",
            "country": "ZA",
            "elevation": 2420,
            "lat": -24.2670001984,
            "lon": 29.783000946,
            "tz": "Africa\/Johannesburg"
        },
        {
            "icao": "LOWW",
            "iata": "VIE",
            "name": "Vienna International Airport",
            "city": "Vienna",
            "state": "Lower-Austria",
            "country": "AT",
            "elevation": 600,
            "lat": 48.1102981567,
            "lon": 16.5697002411,
            "tz": "Europe\/Vienna"
        }
    ]
}
